{
"type": "FeatureCollection",
"name": "sfBARTStations",
"crs": { "type": "name", "properties": { "name": "urn:ogc:def:crs:OGC:1.3:CRS84" } },
"features": [
{ "type": "Feature", "properties": { "id": "sp464ds6332.30", "station": "EMBARCADERO", "operator": "BART", "dist": 4, "co": "SF", "bbox": "(4:-122.3960332205692,37.79322220278401,-122.3960332205692,...)", "link": "http:\/\/sanfrancisco.about.com\/od\/neighborhoodprofiles\/ig\/sfmaps\/financial-district.htm", "name": "Financial District" }, "geometry": { "type": "Point", "coordinates": [ -122.396033220569151, 37.793222202784008 ] } },
{ "type": "Feature", "properties": { "id": "sp464ds6332.31", "station": "MONTGOMERY STREET", "operator": "BART", "dist": 4, "co": "SF", "bbox": "(4:-122.4015398362279,37.78888642284973,-122.4015398362279,...)", "link": "http:\/\/sanfrancisco.about.com\/od\/neighborhoodprofiles\/ig\/sfmaps\/financial-district.htm", "name": "Financial District" }, "geometry": { "type": "Point", "coordinates": [ -122.401539836227911, 37.788886422849728 ] } },
{ "type": "Feature", "properties": { "id": "sp464ds6332.32", "station": "POWELL STREET", "operator": "BART", "dist": 4, "co": "SF", "bbox": "(4:-122.4068235887765,37.78476966169617,-122.4068235887765,...)", "link": "http:\/\/www.sfgate.com\/neighborhoods\/sf\/soma\/", "name": "South of Market" }, "geometry": { "type": "Point", "coordinates": [ -122.406823588776462, 37.784769661696167 ] } },
{ "type": "Feature", "properties": { "id": "sp464ds6332.33", "station": "CIVIC CENTER\/ UN PLAZA", "operator": "BART", "dist": 4, "co": "SF", "bbox": "(4:-122.4141845304437,37.77896496103888,-122.4141845304437,...)", "link": "http:\/\/www.sfgate.com\/neighborhoods\/sf\/soma\/", "name": "South of Market" }, "geometry": { "type": "Point", "coordinates": [ -122.414184530443663, 37.778964961038881 ] } },
{ "type": "Feature", "properties": { "id": "sp464ds6332.34", "station": "16TH STREET & MISSION", "operator": "BART", "dist": 4, "co": "SF", "bbox": "(4:-122.4194566417887,37.76468721127416,-122.4194566417887,...)", "link": "http:\/\/www.sfgate.com\/neighborhoods\/sf\/mission\/", "name": "Mission" }, "geometry": { "type": "Point", "coordinates": [ -122.419456641788727, 37.764687211274158 ] } },
{ "type": "Feature", "properties": { "id": "sp464ds6332.35", "station": "24TH STREET & MISSION", "operator": "BART", "dist": 4, "co": "SF", "bbox": "(4:-122.4183045175051,37.75278416743186,-122.4183045175051,...)", "link": "http:\/\/www.sfgate.com\/neighborhoods\/sf\/mission\/", "name": "Mission" }, "geometry": { "type": "Point", "coordinates": [ -122.418304517505092, 37.752784167431862 ] } },
{ "type": "Feature", "properties": { "id": "sp464ds6332.36", "station": "GLEN PARK", "operator": "BART", "dist": 4, "co": "SF", "bbox": "(4:-122.4339599538096,37.73313053773825,-122.4339599538096,...)", "link": "http:\/\/en.wikipedia.org\/wiki\/Glen_Park,_San_Francisco", "name": "Glen Park" }, "geometry": { "type": "Point", "coordinates": [ -122.433959953809563, 37.733130537738248 ] } },
{ "type": "Feature", "properties": { "id": "sp464ds6332.37", "station": "BALBOA PARK", "operator": "BART", "dist": 4, "co": "SF", "bbox": "(4:-122.4471285869133,37.72160655217213,-122.4471285869133,...)", "link": null, "name": "Cayuga" }, "geometry": { "type": "Point", "coordinates": [ -122.447128586913294, 37.721606552172126 ] } }
]
}
